{"type":"FeatureCollection","features":[{"type":"Feature","id":0,"geometry":{"type":"Point","coordinates":[-64.920561999999961,18.339801000000023]},"properties":{"FID":0,"Name":"Sugar Estate Head Start Center","Latitude":18.339801000000001,"Longitude":-64.920562000000004,"Island":"St.Thomas"}},{"type":"Feature","id":1,"geometry":{"type":"Point","coordinates":[-64.914868999999953,18.340168000000062]},"properties":{"FID":1,"Name":"Community Health Clinic at Schneider","Latitude":18.340167999999998,"Longitude":-64.914868999999996,"Island":"St.Thomas"}},{"type":"Feature","id":2,"geometry":{"type":"Point","coordinates":[-64.916454999999985,18.341674000000069]},"properties":{"FID":2,"Name":"Lockhart Elementary","Latitude":18.341674000000001,"Longitude":-64.916454999999999,"Island":"St.Thomas"}},{"type":"Feature","id":3,"geometry":{"type":"Point","coordinates":[-64.926251999999977,18.34555000000006]},"properties":{"FID":3,"Name":"Knud Hansen Complex Strive Center","Latitude":18.345549999999999,"Longitude":-64.926252000000005,"Island":"St.Thomas"}},{"type":"Feature","id":4,"geometry":{"type":"Point","coordinates":[-64.919948999999974,18.34118600000005]},"properties":{"FID":4,"Name":"Charlotte Amalie High School Auditorium","Latitude":18.341186,"Longitude":-64.919949000000003,"Island":"St.Thomas"}},{"type":"Feature","id":5,"geometry":{"type":"Point","coordinates":[-64.891118999999946,18.317206000000056]},"properties":{"FID":5,"Name":"Bertha B. Boschulte School","Latitude":18.317205999999999,"Longitude":-64.891119000000003,"Island":"St.Thomas"}},{"type":"Feature","id":6,"geometry":{"type":"Point","coordinates":[-64.956730999999934,18.314065000000028]},"properties":{"FID":6,"Name":"Water Island Station","Latitude":18.314064999999999,"Longitude":-64.956731000000005,"Island":"St.Thomas"}}]}